[{"id":12,"name":"Anapa-Vityazevo","lat":45.01336399826,"lon":37.359512717843,"parkingCount":94},{"id":13,"name":"Krasnodar-Center","lat":45.087160611242,"lon":38.925194615078,"parkingCount":58},{"id":14,"name":"Novorossiysk","lat":44.672966814654,"lon":37.778281668496,"parkingCount":40},{"id":15,"name":"Krymsk","lat":44.958094119134,"lon":37.987741689609,"parkingCount":59},{"id":16,"name":"Maykop-Khanskaya","lat":44.691314979119,"lon":40.048814485658,"parkingCount":59},{"id":17,"name":"Gelendzhik","lat":44.567488904313,"lon":38.004419630624,"parkingCount":15},{"id":18,"name":"Sochi-Adler","lat":43.448035076882,"lon":39.95808024729,"parkingCount":70},{"id":19,"name":"Krasnodar-Pashkovsky","lat":45.046310239156,"lon":39.202830234141,"parkingCount":21},{"id":20,"name":"Sukhumi-Babushara","lat":42.868220252603,"lon":41.125167929891,"parkingCount":25},{"id":21,"name":"Gudauta","lat":43.105475209985,"lon":40.567379515029,"parkingCount":33},{"id":22,"name":"Batumi","lat":41.607048385293,"lon":41.60931733578,"parkingCount":12},{"id":23,"name":"Senaki-Kolkhi","lat":42.241342132663,"lon":42.061276657962,"parkingCount":70},{"id":24,"name":"Kobuleti","lat":41.927850973863,"lon":41.86335144577,"parkingCount":44},{"id":25,"name":"Kutaisi","lat":42.170755101692,"lon":42.469006445106,"parkingCount":60},{"id":26,"name":"Mineralnye Vody","lat":44.218873099016,"lon":43.100879170389,"parkingCount":30},{"id":27,"name":"Nalchik","lat":43.518168944411,"lon":43.647627512794,"parkingCount":17},{"id":28,"name":"Mozdok","lat":43.787610868047,"lon":44.618546205282,"parkingCount":41},{"id":29,"name":"Tbilisi-Lochini","lat":41.674082293844,"lon":44.955048007846,"parkingCount":76},{"id":30,"name":"Soganlug","lat":41.657750442276,"lon":44.92925628844,"parkingCount":7},{"id":31,"name":"Vaziani","lat":41.62300843017,"lon":45.038948550694,"parkingCount":94},{"id":32,"name":"Beslan","lat":43.208239235569,"lon":44.588849252363,"parkingCount":17}]